var muni =[{
"type": "FeatureCollection",
"crs": { "type": "name", "properties": { "name": "urn:ogc:def:crs:OGC:1.3:CRS84" } },
                                                                                
"features": [
{ "type": "Feature", "properties": { "id": 1, "Nombre": "Juzgado Penal", "Locacion": null }, "geometry": { "type": "Point", "coordinates": [ -84.0617489, 9.8964714 ] } },
{ "type": "Feature", "properties": { "id": 2, "Nombre": "INS Desamparados", "Locacion": null }, "geometry": { "type": "Point", "coordinates": [ -84.0637425, 9.9006667 ] } },
{ "type": "Feature", "properties": { "id": 3, "Nombre": "Municipalidad de Desamparados", "Locacion": null }, "geometry": { "type": "Point", "coordinates": [ -84.0649073, 9.8987449 ] } },
{ "type": "Feature", "properties": { "id": 4, "Nombre": "ACAMUDE", "Locacion": null }, "geometry": { "type": "Point", "coordinates": [ -84.0685308, 9.8973475 ] } },
{ "type": "Feature", "properties": { "id": 5, "Nombre": "Instituto Costarricense de Electricidad", "Locacion": null }, "geometry": { "type": "Point", "coordinates": [ -84.0806142, 9.8914498 ] } }
]
}
]